[
    {
        "Name": "Subway",
        "Lat": 39.9589294,
        "Long": -82.996934,
        "FlavorText": " Subway üéº",
        "Link": "https://www.subway.com/",
        "href":"subway.html?address=101_E_Town_St_Columbus_OH_43215",
        "Address":"101 E Town St, Columbus, OH 43215",
        "Subway": true
      },
      {
        "Name": "Subway",
        "Lat": 40.1179231,
        "Long": -83.0150081,
        "FlavorText": " Subway :)",
        "Link": "https://www.subway.com/",
        "href":"subway.html?address=1_E_Campus_View_Blvd_Suite_116_Columbus_OH_43235",
        "Address":"1 E Campus View Blvd Suite 116, Columbus, OH 43235",
        "Subway": true
      },
      {
        "Name": "Subway",
        "Lat": 39.9162279,
        "Long": -83.0358222,
        "FlavorText": "subwayüåê",
        "Link": "https://www.subway.com/",
        "href":"subway.html?address=1093_Frank_Rd_Columbus_OH_43223",
        "Address":"1093 Frank Rd, Columbus, OH 43223",
        "Subway": true
      },
      {
        "Name": "Subway",
        "Lat": 40.0499474,
        "Long": -83.0516656,
        "FlavorText": "subwayüÜó",
        "Link": "https://www.subway.com/",
        "href":"subway.html?address=1194_Kenny_Centre_Mall_Room_122_Columbus_OH_43220",
        "Address":"1194 Kenny Centre Mall Room # 122, Columbus, OH 43220",
        "Subway": true
      },
      {
        "Name": "Subway",
        "Lat": 39.9275356,
        "Long": -83.1203298,
        "FlavorText": "subwayüíØ",
        "Link": "https://www.subway.com/",
        "href":"subway.html?address=1221_Georgesville_Rd_Columbus_OH_43228",
        "Address":"1221 Georgesville Rd, Columbus, OH 43228",
        "Subway": true
      },
      {
        "Name": "Subway",
        "Lat": 40.0598008,
        "Long":  -82.9861377,
        "FlavorText": "Subway¬©Ô∏è",
        "Link": "https://www.subway.com/",
        "href":"subway.html?address=1251_Morse_Rd_Columbus_OH_43229",
        "Address":"1251 Morse Rd, Columbus, OH 43229",
        "Subway": true
      },
      {
        "Name": "Subway",
        "Lat": 40.0072525,
        "Long": -83.0463039,
        "FlavorText": "‚ÜìSubway‚Üì",
        "href":"subway.html?address=1320_W_Lane_Ave_Columbus_OH_43221",
        "Link": "https://www.subway.com/",
        "Address":"1320 W Lane Ave, Columbus, OH 43221",
        "Subway": true
      },
      {
        "Name": "Subway",
        "Lat": 39.9940551,
        "Long": -83.0463039,
        "FlavorText": "‚ÜëSubway‚Üë",
        "Link": "https://www.subway.com/",
        "href":"subway.html?address=1418_Cleveland_Ave_Columbus_OH_43211",
        "Address":"1418 Cleveland Ave Columbus, OH 43211",
        "Subway": true
      }
]